{"componentChunkName":"component---src-pages-service-centres-js","path":"/service-centres/","result":{"data":{"page":{"title":"Our Locations","seoTitle":"Our Locations | Motorserve","seoDescription":"Visit one of our Motorserve service centres across NSW and ACT today for expert car servicing and repairs.","_rawRichTextOne":[{"_key":"dc47bd81a9b4","_type":"block","children":[{"_key":"dc47bd81a9b40","_type":"span","marks":[],"text":"FIND YOUR CLOSEST MOTORSERVE CENTRE"}],"markDefs":[],"style":"h2"},{"_key":"a870fac1b069","_type":"block","children":[{"_key":"a870fac1b0690","_type":"span","marks":[],"text":"Please select a location on the map below:"}],"markDefs":[],"style":"normal"}],"_rawRichTextTwo":[{"_key":"08a10c5fe324","_type":"block","children":[{"_key":"08a10c5fe3240","_type":"span","marks":[],"text":"Use the map above to find a Motorserve location for your next car service, repair or insurance services."}],"markDefs":[],"style":"normal"},{"_key":"40be77c9b4e0","_type":"block","children":[{"_key":"40be77c9b4e00","_type":"span","marks":[],"text":""}],"markDefs":[],"style":"normal"},{"_key":"8f41987bb24f","_type":"block","children":[{"_key":"8f41987bb24f0","_type":"span","marks":[],"text":"Having trouble?"}],"markDefs":[],"style":"h3"},{"_key":"5c6381072a22","_type":"block","children":[{"_key":"5c6381072a220","_type":"span","marks":[],"text":"Try using the 'state' or 'service' filters"}],"level":1,"listItem":"bullet","markDefs":[],"style":"normal"},{"_key":"d889c9388a64","_type":"block","children":[{"_key":"d889c9388a640","_type":"span","marks":[],"text":"Use the + and - buttons in the bottom right corner to zoom in or out"}],"level":1,"listItem":"bullet","markDefs":[],"style":"normal"},{"_key":"dffc7673fd1e","_type":"block","children":[{"_key":"dffc7673fd1e0","_type":"span","marks":[],"text":"Click and drag the map to move around"}],"level":1,"listItem":"bullet","markDefs":[],"style":"normal"},{"_key":"398d81859d3e","_type":"block","children":[{"_key":"398d81859d3e0","_type":"span","marks":[],"text":"Click the \"book a service\" or \"more info\" buttons to be taken to further information "}],"level":1,"listItem":"bullet","markDefs":[],"style":"normal"},{"_key":"110e3f4e13e6","_type":"block","children":[{"_key":"110e3f4e13e60","_type":"span","marks":[],"text":""}],"markDefs":[],"style":"normal"},{"_key":"69bd18f0f4a0","_type":"block","children":[{"_key":"69bd18f0f4a00","_type":"span","marks":[],"text":"Our Motorserve teams are always available to help, call "},{"_key":"69bd18f0f4a01","_type":"span","marks":["strong"],"text":"1300 869 585"}],"markDefs":[],"style":"normal"}],"headerPageSlim":{"image":{"asset":{"id":"image-06d3fd70fa6a89332c47037473df9cda13ef1f7f-1440x400-jpg","url":"https://cdn.sanity.io/images/ap69w8f0/develop/06d3fd70fa6a89332c47037473df9cda13ef1f7f-1440x400.jpg"},"alt":"Customers "},"pageHeading":"Our Locations"},"bannerMessage":{"title":"How we’re continuing to serve the community","_rawSimpleText":[{"_key":"4b3b740d0f28","_type":"block","children":[{"_key":"4b3b740d0f280","_type":"span","marks":[],"text":"It’s our mission to do everything we can to keep you and your loved ones safe on the road and in the community. That’s why we’ve implemented a number of changes across all Motorserve stores to help minimise the spread of the COVID-19 virus."}],"markDefs":[],"style":"normal"}],"image":{"alt":"Man placing bike on car racks","asset":{"url":"https://cdn.sanity.io/images/ap69w8f0/develop/9856619f69f90c616f18548c1da2a86d445960c3-1440x400.jpg"}},"ctaButton":{"link":null,"route":"/covid-response/","title":"View latest update"}}},"locations":{"edges":[{"node":{"id":"-122fc99c-8360-5c8b-9f07-f93d3ee7e637","slug":"alexandria","location":{"_key":null,"_type":"geopoint","lat":-33.9085748,"lng":151.1906017,"alt":null},"name":"Motorserve Alexandria","address":"90A Euston Road, Alexandria NSW 2015","state":"nsw","phoneNumber":"02 7904 1934","locationServices":{"_key":null,"_type":"locationType","servicing":false,"insurance":true,"paint":false}}},{"node":{"id":"-7e09a76c-f0ba-5340-989a-031cedbc8d0c","slug":"artarmon","location":{"_key":null,"_type":"geopoint","lat":-33.8152924,"lng":151.19103,"alt":null},"name":"Motorserve Artarmon","address":"Unit 8, 43 Herbert Street, Artarmon NSW 2064","state":"nsw","phoneNumber":"02 8048 3841","locationServices":{"_key":null,"_type":"locationType","servicing":true,"insurance":true,"paint":false}}},{"node":{"id":"-6ecfd22c-f382-524f-a3e3-7d3230deb61d","slug":"banyo","location":{"_key":null,"_type":"geopoint","lat":-27.3868197,"lng":153.0807174,"alt":null},"name":"Motorserve Banyo","address":"35 Wentworth Place, Banyo QLD 4014","state":"qld","phoneNumber":"07 2105 5776","locationServices":{"_key":null,"_type":"locationType","servicing":false,"insurance":true,"paint":false}}},{"node":{"id":"-f01cd385-0ca7-5bf4-9a67-4bd0fba2331c","slug":"bayswater","location":{"_key":null,"_type":"geopoint","lat":-37.8380813,"lng":145.2742245,"alt":null},"name":"Motorserve Bayswater","address":"Unit 6, 841 Mountain Highway, Bayswater VIC 3153","state":"vic","phoneNumber":"(03) 9780 4053","locationServices":{"_key":null,"_type":"locationType","servicing":false,"insurance":true,"paint":false}}},{"node":{"id":"-1c40f942-3582-565e-9a20-43168bfeab87","slug":"brookvale","location":{"_key":null,"_type":"geopoint","lat":-33.76731945796974,"lng":151.26166462898254,"alt":null},"name":"Motorserve Brookvale","address":"Unit 1A, 134-140 Old Pittwater Road, Brookvale NSW 2100","state":"nsw","phoneNumber":"02 9167 9491","locationServices":{"_key":null,"_type":"locationType","servicing":true,"insurance":true,"paint":false}}},{"node":{"id":"-792995e6-f644-55c7-b392-06b8ce87805f","slug":"campbellfield","location":{"_key":null,"_type":"geopoint","lat":-37.6587649,"lng":144.9555049,"alt":null},"name":"Motorserve Campbellfield","address":"51-53 Jesica Rd Campbellfield VIC 3061","state":"vic","phoneNumber":"03 8750 5900 ","locationServices":{"_key":null,"_type":"locationType","servicing":false,"insurance":true,"paint":false}}},{"node":{"id":"-a45f8aaa-b860-5242-a4cc-57c338cc29ef","slug":"campbelltown","location":{"_key":null,"_type":"geopoint","lat":-34.05519721870888,"lng":150.82083821296692,"alt":null},"name":"Motorserve Campbelltown","address":"2/12 Blaxland Road, Campbelltown NSW 2560","state":"nsw","phoneNumber":"02 4624 3570","locationServices":{"_key":null,"_type":"locationType","servicing":true,"insurance":false,"paint":false}}},{"node":{"id":"-ab9527a6-924f-5494-a227-2c5a3cd080ed","slug":"caringbah","location":{"_key":null,"_type":"geopoint","lat":-34.02596794961377,"lng":151.1290481686592,"alt":null},"name":"Motorserve Caringbah","address":"7-11 Parraweena Road, Caringbah NSW 2229","state":"nsw","phoneNumber":"02 8048 3845","locationServices":{"_key":null,"_type":"locationType","servicing":true,"insurance":true,"paint":false}}},{"node":{"id":"-1bf46b8b-61d5-5ea5-9a47-ce6ef37880f4","slug":"castle-hill","location":{"_key":null,"_type":"geopoint","lat":-33.72995800272616,"lng":150.98190872803343,"alt":null},"name":"Motorserve Castle Hill","address":"Building A, 5 Hoyle Ave Castle Hill NSW 2154","state":"nsw","phoneNumber":"02 8048 3849","locationServices":{"_key":null,"_type":"locationType","servicing":true,"insurance":true,"paint":true}}},{"node":{"id":"-b25dde10-90cd-5662-a3f4-ada9f65a0533","slug":"derrimut","location":{"_key":null,"_type":"geopoint","lat":-37.8000202,"lng":144.7618495,"alt":null},"name":"Motorserve Derrimut","address":"86 Calarco Drive, Derrimut VIC 3026","state":"vic","phoneNumber":"03 8366 3118","locationServices":{"_key":null,"_type":"locationType","servicing":false,"insurance":true,"paint":false}}},{"node":{"id":"-3ff5de76-c999-52cf-8725-0d39e80f573d","slug":"dubbo","location":{"_key":null,"_type":"geopoint","lat":-32.2627779,"lng":148.6518572,"alt":null},"name":"Motorserve Dubbo","address":"3 Blueridge Dr, Dubbo NSW 2830","state":"nsw","phoneNumber":"02 6882 7570","locationServices":{"_key":null,"_type":"locationType","servicing":true,"insurance":false,"paint":true}}},{"node":{"id":"-03caa9b0-ed59-57e9-8a66-bbbf66f85267","slug":"epping","location":{"_key":null,"_type":"geopoint","lat":-37.6475041,"lng":145.0028509,"alt":null},"name":"Motorserve Epping","address":"2/9 Lydia Court, Epping 3076 Victoria","state":"vic","phoneNumber":"03 8468 4099","locationServices":{"_key":null,"_type":"locationType","servicing":false,"insurance":true,"paint":false}}},{"node":{"id":"-3087d4f6-a923-532c-8cc5-1c2346fa8cce","slug":"fyshwick","location":{"_key":null,"_type":"geopoint","lat":-35.32908,"lng":149.1869426,"alt":null},"name":"Motorserve Fyshwick","address":"75 Tennant Street, Fyshwick ACT 2609","state":"act","phoneNumber":"02 6124 8320 ","locationServices":{"_key":null,"_type":"locationType","servicing":false,"insurance":true,"paint":false}}},{"node":{"id":"-4c12db0a-f482-5a65-aec4-ef85edad2c0d","slug":"bellpark","location":{"_key":null,"_type":"geopoint","lat":-38.105087,"lng":144.3422572,"alt":null},"name":"Motorserve Geelong","address":"23-24 Hume Reserve Court, Bell Park VIC 3215","state":"vic","phoneNumber":"03 4245 4419","locationServices":{"_key":null,"_type":"locationType","servicing":false,"insurance":true,"paint":false}}},{"node":{"id":"-15a9d133-8e5e-5ded-8921-19274ac61207","slug":"gladesville","location":{"_key":null,"_type":"geopoint","lat":-33.82264799999999,"lng":151.1225591,"alt":null},"name":"Motorserve Gladesville","address":"455-457 Victoria Road, Gladesville\t NSW 2111","state":"nsw","phoneNumber":"02 7910 0459","locationServices":{"_key":null,"_type":"locationType","servicing":true,"insurance":true,"paint":true}}},{"node":{"id":"-b4358a50-6673-5d79-80b2-ab404c6c1765","slug":"hallam","location":{"_key":null,"_type":"geopoint","lat":-38.0096596,"lng":145.2700372,"alt":null},"name":"Motorserve Hallam","address":"18-20 Abbott Rd, Hallam VIC 3803","state":"vic","phoneNumber":"03 8750 5550","locationServices":{"_key":null,"_type":"locationType","servicing":false,"insurance":true,"paint":false}}},{"node":{"id":"-d44f8817-1f0d-5888-9047-39e11c6d3aaf","slug":"homebush","location":{"_key":null,"_type":"geopoint","lat":-33.8589092,"lng":151.0710846,"alt":null},"name":"Motorserve Homebush","address":"Unit 1 201 Parramatta Road, Homebush West NSW 2140","state":"nsw","phoneNumber":"02 9178 4795","locationServices":{"_key":null,"_type":"locationType","servicing":false,"insurance":true,"paint":false}}},{"node":{"id":"-845c0f35-b32d-5eda-877a-47dc0324f276","slug":"hornsby","location":{"_key":null,"_type":"geopoint","lat":-33.70801615123569,"lng":151.09902754426003,"alt":null},"name":"Motorserve Hornsby","address":"1 Hornsby Street, Hornsby NSW 2077","state":"nsw","phoneNumber":"02 8048 3853","locationServices":{"_key":null,"_type":"locationType","servicing":true,"insurance":false,"paint":false}}},{"node":{"id":"-0bd8ada3-4204-5787-8d47-ae4083e9c7fa","slug":"kotara","location":{"_key":null,"_type":"geopoint","lat":-32.94111010379144,"lng":151.70527517795563,"alt":null},"name":"Motorserve Kotara","address":"Unit 3, 154 Park Avenue, Kotara, NSW 2289","state":"nsw","phoneNumber":"02 4911 9417","locationServices":{"_key":null,"_type":"locationType","servicing":true,"insurance":false,"paint":false}}},{"node":{"id":"-00a26e85-39b9-569d-97c0-f976dc555d34","slug":"liverpool","location":{"_key":null,"_type":"geopoint","lat":-33.9210021,"lng":150.9218902,"alt":null},"name":"Motorserve Liverpool","address":"46 Bathurst Street, Liverpool NSW\t2170","state":"nsw","phoneNumber":"02 9186 3602","locationServices":{"_key":null,"_type":"locationType","servicing":true,"insurance":false,"paint":false}}},{"node":{"id":"-b3f9da2f-8274-5318-8f7a-45e768a498e9","slug":"majura-park","location":{"_key":null,"_type":"geopoint","lat":-35.2917339768574,"lng":149.1913828253746,"alt":null},"name":"Motorserve Majura Park","address":"3/1A Catalina Drive, Majura Park ACT 2609","state":"act","phoneNumber":"02 6109 5042","locationServices":{"_key":null,"_type":"locationType","servicing":true,"insurance":false,"paint":false}}},{"node":{"id":"-6c30e8c7-c462-5b31-896f-5c3e3d65decf","slug":"marrickville","location":{"_key":null,"_type":"geopoint","lat":-33.90841706774677,"lng":151.17377668619156,"alt":null},"name":"Motorserve Marrickville Car Servicing","address":"54 Smidmore Street, Marrickville NSW 2204","state":"nsw","phoneNumber":"02 9025 7640","locationServices":{"_key":null,"_type":"locationType","servicing":true,"insurance":false,"paint":false}}},{"node":{"id":"-76dbdfc0-b5a1-5792-8b96-9742945bd6aa","slug":"milperra","location":{"_key":null,"_type":"geopoint","lat":-33.93196590000001,"lng":150.9945235,"alt":null},"name":"Motorserve Milperra","address":"1 Sheridan Close Milperra NSW 2214","state":"nsw","phoneNumber":"02 8768 2169","locationServices":{"_key":null,"_type":"locationType","servicing":false,"insurance":true,"paint":false}}},{"node":{"id":"-76965bb3-9f15-524e-9bad-90afca4577b4","slug":"mitchell","location":{"_key":null,"_type":"geopoint","lat":-35.2186284,"lng":149.1375898,"alt":null},"name":"Motorserve Mitchell","address":"76 Grimwade Street, Mitchell ACT 2911","state":"act","phoneNumber":"02 6183 3374","locationServices":{"_key":null,"_type":"locationType","servicing":false,"insurance":true,"paint":true}}},{"node":{"id":"-98cf530a-5d57-5081-b476-5a9fa28343fa","slug":"moorabbin","location":{"_key":null,"_type":"geopoint","lat":-37.9483969,"lng":145.0652842,"alt":null},"name":"Motorserve Moorabbin","address":"8/56 Keys Road, Moorabbin, VIC 3189","state":"vic","phoneNumber":"(03) 9964 4060","locationServices":{"_key":null,"_type":"locationType","servicing":false,"insurance":true,"paint":false}}},{"node":{"id":"-daaff4c2-9ea7-517e-b8aa-58dc70e4b622","slug":"mornington","location":{"_key":null,"_type":"geopoint","lat":-38.234837,"lng":145.0584248,"alt":null},"name":"Motorserve Mornington","address":"Unit 2, 7A Bruce Street, Mornington, VIC 3931","state":"vic","phoneNumber":"03 5972 6064","locationServices":{"_key":null,"_type":"locationType","servicing":false,"insurance":true,"paint":false}}},{"node":{"id":"-56441fe5-8dd9-5c63-9fd6-6e0ed3c6822a","slug":"narrabeen","location":{"_key":null,"_type":"geopoint","lat":-33.70126965168739,"lng":151.29952535033226,"alt":null},"name":"Motorserve Narrabeen","address":"1408-1410 Pittwater Road, North Narrabeen\tNSW 2101","state":"nsw","phoneNumber":"02 8048 3857","locationServices":{"_key":null,"_type":"locationType","servicing":true,"insurance":false,"paint":false}}},{"node":{"id":"-c4ba5595-93e4-5212-9f18-ec92ccf89368","slug":"noble-park","location":{"_key":null,"_type":"geopoint","lat":-37.95019389580715,"lng":145.18485993146896,"alt":null},"name":"Motorserve Noble Park","address":"Unit 2, 158-168 Browns Road, Noble Park VIC 3174","state":"vic","phoneNumber":"03 8366 3120","locationServices":{"_key":null,"_type":"locationType","servicing":false,"insurance":true,"paint":false}}},{"node":{"id":"-56c0fa7c-8a1d-5ab1-b1d3-8eee1b720b15","slug":"north-parramatta","location":{"_key":null,"_type":"geopoint","lat":-33.79706105199012,"lng":151.00322306156158,"alt":null},"name":"Motorserve North Parramatta","address":"1B 9-11 Barney Street, North Parramatta NSW 2151","state":"nsw","phoneNumber":"02 9167 9495","locationServices":{"_key":null,"_type":"locationType","servicing":true,"insurance":true,"paint":false}}},{"node":{"id":"-2f677892-1309-51ea-a184-097e2a6b682a","slug":"padstow","location":{"_key":null,"_type":"geopoint","lat":-33.94624144591109,"lng":151.0325751453638,"alt":null},"name":"Motorserve Padstow","address":"1 Enterprise Avenue, Padstow NSW 2211","state":"nsw","phoneNumber":"02 8048 3861","locationServices":{"_key":null,"_type":"locationType","servicing":true,"insurance":false,"paint":false}}},{"node":{"id":"-32f497aa-387d-5974-966c-56bfb42bb2ef","slug":"penrith","location":{"_key":null,"_type":"geopoint","lat":-33.752702365936315,"lng":150.68971440196037,"alt":null},"name":"Motorserve Penrith","address":"71 Union Road, Penrith NSW 2750","state":"nsw","phoneNumber":"02 4742 0915","locationServices":{"_key":null,"_type":"locationType","servicing":true,"insurance":false,"paint":false}}},{"node":{"id":"-ffae39ce-94ee-592b-9782-915c1850cc2d","slug":"port-melbourne","location":{"_key":null,"_type":"geopoint","lat":-37.832450317964025,"lng":144.95036797610518,"alt":null},"name":"Motorserve Port Melbourne","address":"250A Ingles St, Port Melbourne VIC 3207","state":"vic","phoneNumber":"03 9060 8098","locationServices":{"_key":null,"_type":"locationType","servicing":false,"insurance":true,"paint":false}}},{"node":{"id":"-af9c5a9c-499d-5880-83ae-899773548488","slug":"preston","location":{"_key":null,"_type":"geopoint","lat":-37.7514896,"lng":145.0240236,"alt":null},"name":"Motorserve Preston","address":"65 Raglan St, Preston VIC 3072","state":"vic","phoneNumber":"03 8744 1119","locationServices":{"_key":null,"_type":"locationType","servicing":false,"insurance":true,"paint":false}}},{"node":{"id":"-690c36d9-321e-5a52-b9d7-2c068f3bec44","slug":"prestons","location":{"_key":null,"_type":"geopoint","lat":-33.9380251,"lng":150.8682042,"alt":null},"name":"Motorserve Prestons","address":"3/28 Bernera Road, Prestons NSW 2170","state":"nsw","phoneNumber":"02 8769 3055","locationServices":{"_key":null,"_type":"locationType","servicing":false,"insurance":true,"paint":false}}},{"node":{"id":"-1f67cb3c-a278-55ab-af29-a2bbff774094","slug":"revesby","location":{"_key":null,"_type":"geopoint","lat":-33.9415588,"lng":151.0307944,"alt":null},"name":"Motorserve Revesby","address":"Unit 1 17-23 Bryant street Padstow 2211","state":"nsw","phoneNumber":"02 8768 2169","locationServices":{"_key":null,"_type":"locationType","servicing":false,"insurance":true,"paint":null}}},{"node":{"id":"-4987edb5-834e-5698-a25a-d28d6a9b0c3d","slug":"richmond","location":{"_key":null,"_type":"geopoint","lat":-37.8189323,"lng":145.0108449,"alt":null},"name":"Motorserve Richmond","address":"129 Palmer St, Richmond VIC 3121","state":"vic","phoneNumber":"03 7040 0129","locationServices":{"_key":null,"_type":"locationType","servicing":false,"insurance":true,"paint":false}}},{"node":{"id":"-96d608bb-3f8d-5185-9d77-a1b9b7ed35ea","slug":"rouse-hill","location":{"_key":null,"_type":"geopoint","lat":-33.683652843788984,"lng":150.91865301132202,"alt":null},"name":"Motorserve Rouse Hill","address":"Unit 1, 2 Resolution Place, Rouse Hill NSW 2155","state":"nsw","phoneNumber":"02 8048 3865","locationServices":{"_key":null,"_type":"locationType","servicing":true,"insurance":false,"paint":false}}},{"node":{"id":"-bcf86b78-b25b-522b-a5de-43d897d8dfcf","slug":"seven-hills","location":{"_key":null,"_type":"geopoint","lat":-33.7707653,"lng":150.9401572,"alt":null},"name":"Motorserve Seven Hills","address":"Unit 1, 167 Prospect Highway, Seven Hills NSW 2147","state":"nsw","phoneNumber":"02 8048 3869","locationServices":{"_key":null,"_type":"locationType","servicing":true,"insurance":true,"paint":false}}},{"node":{"id":"-3ddf83d7-e974-5cc7-859d-6ddf9571e837","slug":"shellharbour","location":{"_key":null,"_type":"geopoint","lat":-34.567081503476366,"lng":150.8101201057434,"alt":null},"name":"Motorserve Shellharbour","address":"109 Industrial Road, Oak Flats NSW 2529","state":"nsw","phoneNumber":"02 4264 0999","locationServices":{"_key":null,"_type":"locationType","servicing":true,"insurance":false,"paint":null}}},{"node":{"id":"-2b32385a-4371-5664-bd4e-9bc4f913f197","slug":"smithfield","location":{"_key":null,"_type":"geopoint","lat":-33.8508271,"lng":150.9405066,"alt":null},"name":"Motorserve Smithfield","address":"32 Victoria Street, Smithfield NSW 2164","state":"nsw","phoneNumber":"02 8106 3175","locationServices":{"_key":null,"_type":"locationType","servicing":false,"insurance":true,"paint":false}}},{"node":{"id":"-d5eb886c-4dfd-54ce-9252-0322555c873b","slug":"south-melbourne","location":{"_key":null,"_type":"geopoint","lat":-37.832450317964025,"lng":144.95036797610518,"alt":null},"name":"Motorserve South Melbourne","address":"101-109 Thistlewaite Street, South Melbourne VIC 3205","state":"vic","phoneNumber":"0411 011 243 ","locationServices":{"_key":null,"_type":"locationType","servicing":false,"insurance":true,"paint":null}}},{"node":{"id":"-51e32f51-bf84-51a5-8abc-b9c939adcb23","slug":"south-strathfield","location":{"_key":null,"_type":"geopoint","lat":-33.88814539031889,"lng":151.07394218444824,"alt":null},"name":"Motorserve South Strathfield","address":"2 Cosgrove Road, South Strathfield NSW 2136","state":"nsw","phoneNumber":"02 8115 0586","locationServices":{"_key":null,"_type":"locationType","servicing":true,"insurance":false,"paint":false}}},{"node":{"id":"-a9e0250c-ba82-50f4-8701-077e2f82b42e","slug":"tempe-repair-hub","location":{"_key":null,"_type":"geopoint","lat":-33.91757453164002,"lng":151.15750640630722,"alt":null},"name":"Motorserve Tempe","address":"8 Carrington Road, Marrickville NSW 2204","state":"nsw","phoneNumber":"02 8064 9119","locationServices":{"_key":null,"_type":"locationType","servicing":false,"insurance":true,"paint":false}}},{"node":{"id":"-bffca3d1-80bb-5b42-9e67-1de97a0fe372","slug":"tingalpa","location":{"_key":null,"_type":"geopoint","lat":-27.4801393,"lng":153.13995,"alt":null},"name":"Motorserve Tingalpa","address":"6/302-308 New Cleveland road, Tingalpa 4173","state":"qld","phoneNumber":"07 3516 6859","locationServices":{"_key":null,"_type":"locationType","servicing":false,"insurance":true,"paint":false}}},{"node":{"id":"-34d05d35-be39-5a5f-9eb1-a81b10d04c4f","slug":"townsville","location":{"_key":null,"_type":"geopoint","lat":-19.2724694,"lng":146.7745165,"alt":null},"name":"Motorserve Townsville","address":"116 Dalrymple Road, Currajong QLD 4812","state":"qld","phoneNumber":"07 4766 8540","locationServices":{"_key":null,"_type":"locationType","servicing":true,"insurance":false,"paint":true}}},{"node":{"id":"-f1b2e525-4ccc-5c0c-b900-91aca19f9d89","slug":"tuggeranong","location":{"_key":null,"_type":"geopoint","lat":-35.4193845,"lng":149.0657497,"alt":null},"name":"Motorserve Tuggeranong","address":"62 Athllon Drive, Greenway ACT 2900","state":"act","phoneNumber":"02 6109 5058","locationServices":{"_key":null,"_type":"locationType","servicing":true,"insurance":false,"paint":false}}},{"node":{"id":"-f20ceb01-90bd-5509-afaf-73ed0221c9f0","slug":"tullamarine","location":{"_key":null,"_type":"geopoint","lat":-37.708731,"lng":144.8654296,"alt":null},"name":"Motorserve Tullamarine","address":"46 Assembly Drive Tullamarine VIC 3043","state":"vic","phoneNumber":"03 9140 2269","locationServices":{"_key":null,"_type":"locationType","servicing":false,"insurance":true,"paint":false}}},{"node":{"id":"-c2d9d0f6-26f4-5eb9-8442-319f6481d8cf","slug":"underwood","location":{"_key":null,"_type":"geopoint","lat":-27.61887949999999,"lng":153.11798,"alt":null},"name":"Motorserve Underwood","address":"77-81 Parramatta Rd, Underwood QLD 4119","state":"qld","phoneNumber":"07 2889 5069","locationServices":{"_key":null,"_type":"locationType","servicing":false,"insurance":true,"paint":false}}},{"node":{"id":"-2fb6592b-c918-5b8a-ada5-ee5d9bafaf33","slug":"wagga-wagga","location":{"_key":null,"_type":"geopoint","lat":-35.11670320175079,"lng":147.34583526849747,"alt":null},"name":"Motorserve Wagga Wagga","address":"49 Pearson Street Wagga Wagga NSW\t2650","state":"nsw","phoneNumber":"02 5908 7899","locationServices":{"_key":null,"_type":"locationType","servicing":true,"insurance":false,"paint":null}}},{"node":{"id":"-5a02d252-3c45-5f39-b9b2-98526b909283","slug":"wollongong","location":{"_key":null,"_type":"geopoint","lat":-34.4283173,"lng":150.8913323,"alt":null},"name":"Motorserve Wollongong","address":"32 Kenny Street, Wollongong\tNSW 2500","state":"nsw","phoneNumber":"02 4203 3626","locationServices":{"_key":null,"_type":"locationType","servicing":true,"insurance":false,"paint":false}}}]}},"pageContext":{}},"staticQueryHashes":["799733678"]}